[
  {
    "District_id":1,
    "Name":"Central",
    "Color":"#B452CD",
    "longitude":-87.623572,
    "latitude":41.880280
  },
  {
    "District_id":2,
    "Name":"Wentworth",
    "Color":"#9400D3",
    "longitude":-87.629161,
    "latitude":41.745228
  },
  {
    "District_id":3,
    "Name":"Grand Crossing",
    "Color":"#AB82FF",
    "longitude":-87.595383,
    "latitude":41.763414
  },
  {
    "District_id":4,
    "Name":"South Chicago",
    "Color":"#8470FF",
    "longitude":-87.554462,
    "latitude":41.739653
  },
  {
    "District_id":5,
    "Name":"Calumet",
    "Color":"#0000EE",
    "longitude":-87.561836,
    "latitude":41.692955
  },
  {
    "District_id":6,
    "Name":"Gresham",
    "Color":"#B0C4DE",
    "longitude":-87.658573,
    "latitude":41.747895
  },
  {
    "District_id":7,
    "Name":"Englewood",
    "Color":"#00E5EE",
    "longitude":-87.641642,
    "latitude":41.775305
  },
  {
    "District_id":8,
    "Name":"Chicago Lawn",
    "Color":"#C1CDCD",
    "longitude":-87.695410,
    "latitude":41.771942
  },
  {
    "District_id":9,
    "Name":"Deering",
    "Color":"#7FFFD4",
    "longitude":-87.561132,
    "latitude":41.699224
  },
  {
    "District_id":10,
    "Name":"Ogden",
    "Color":"#838B83",
    "longitude":-87.654973,
    "latitude":41.895962
  },
  {
    "District_id":11,
    "Name":"Harrison",
    "Color":"#A2CD5A",
    "longitude":-87.627461,
    "latitude":41.874146
  },
  {
    "District_id":12,
    "Name":"Near West",
    "Color":"#CDCD00",
    "longitude":-88.203961,
    "latitude":41.884751
  },
  {
    "District_id":14,
    "Name":"Shakespear",
    "Color":"#E3CF57",
    "longitude":-87.726611,
    "latitude":41.919926
  },
  {
    "District_id":15,
    "Name":"Austin",
    "Color":"#CD8500",
    "longitude":-87.761562,
    "latitude":41.892953
  },
  {
    "District_id":16,
    "Name":"Jefferson Park",
    "Color":"#FFEBCD",
    "longitude":-87.770397,
    "latitude":41.982515
  },
  {
    "District_id":17,
    "Name":"Albany Park",
    "Color":"#A0522D",
    "longitude":-87.719724,
    "latitude":41.968972
  },
  {
    "District_id":18,
    "Name":"Near North",
    "Color":"#C67171",
    "longitude":-87.628196,
    "latitude":41.895356
  },
  {
    "District_id":19,
    "Name":"Town Hall",
    "Color":"#848484",
    "longitude":-113.165284,
    "latitude":46.588117
  },
  {
    "District_id":20,
    "Name":"Foster",
    "Color":"#B8B8B8",
    "longitude":-87.746947,
    "latitude":41.975354
  },
  {
    "District_id":22,
    "Name":"Morgan Park",
    "Color":"#EE4000",
    "longitude":-87.669003,
    "latitude":41.687840
  },
  {
    "District_id":24,
    "Name":"Rogers Park",
    "Color":"#FFA54F",
    "longitude":-87.669553,
    "latitude":42.010636
  },
  {
    "District_id":25,
    "Name":"Grand Central",
    "Color":"#CDBA96",
    "longitude":-87.613563,
    "latitude":41.891896
  }
]